,State,District,Latitude,Longitude,District name,Population,Male,Female,Literate,Households_with_Internet,Literacy rate,sex ratio
0,Andhra Pradesh,Adilabad,19.284513950073435,78.81321233480176,Adilabad,2741239,1369597,1371642,1483347,5512,54.112282803506005,1001.4931399528474
1,Andhra Pradesh,Anantapur,14.312065561843148,77.4601584478577,Anantapur,4081148,2064495,2016653,2310960,8606,56.62524368143473,976.8262940816035
2,Andhra Pradesh,Chittoor,13.33109263067696,78.92763898886037,Chittoor,4174064,2090204,2083860,2667878,13763,63.915598802509976,996.9648895514505
3,Andhra Pradesh,East Godavari,16.782718320784902,82.2432074720511,East Godavari,5154296,2569688,2584608,3288577,22411,63.80264152466215,1005.8061523422299
4,Andhra Pradesh,Guntur,15.884925767634847,80.58657614107885,Guntur,4887813,2440521,2447292,2960441,19383,60.56780404651324,1002.7744075957552
5,Andhra Pradesh,Hyderabad,17.38971555555556,78.46668888888888,Hyderabad,3943323,2018575,1924748,2892155,149034,73.34309160066269,953.5181997200996
6,Andhra Pradesh,Karimnagar,18.515483193277312,79.43765428571413,Karimnagar,3776269,1880800,1895469,2206829,8831,58.43940143035361,1007.7993407060825
7,Andhra Pradesh,Khammam,17.683921325051784,80.67008643892335,Khammam,2797370,1390988,1406382,1630234,8628,58.27738196949277,1011.0669538486313
8,Andhra Pradesh,Krishna,16.143872753151673,81.14805061000413,Krishna,4517398,2267375,2250023,3009718,30438,66.62503503122815,992.3470974144109
9,Andhra Pradesh,Kurnool,15.43759715142429,77.90086836581717,Kurnool,4053463,2039227,2014236,2127161,10081,52.47762222080231,987.7448660693489
10,Andhra Pradesh,Mahbubnagar,16.639546224256293,77.98933089244859,Mahbubnagar,4053028,2050386,2002642,1940646,6153,47.881386459703705,976.7146283675366
11,Andhra Pradesh,Medak,17.889304978038055,78.13778901903379,Medak,3033288,1523030,1510258,1637137,8635,53.972356070376435,991.6140850803989
12,Andhra Pradesh,Nalgonda,17.113250515463907,79.16984453608244,Nalgonda,3488809,1759772,1729037,2001019,7715,57.35536109887357,982.5346692639729
13,Andhra Pradesh,Nizamabad,18.429485849056604,78.07523490566035,Nizamabad,2551335,1250641,1300694,1389810,5261,54.47383428675576,1040.0218767815863
14,Andhra Pradesh,Prakasam,15.489039001601704,80.11665790176184,Prakasam,3397448,1714764,1682684,1904435,6151,56.054868242280676,981.2918862304084
15,Andhra Pradesh,Srikakulam,18.570900998697432,84.25874814010675,Srikakulam,2703114,1341738,1361376,1495381,3988,55.32067829917643,1014.6362404582712
16,Andhra Pradesh,Vizianagaram,18.28329696032972,83.45982854198873,Vizianagaram,2344474,1161477,1182997,1238388,4453,52.82157106455435,1018.5281327137774
17,Andhra Pradesh,Warangal,18.01752608695651,79.87422028985509,Warangal,3512576,1759281,1753295,2065023,12952,58.78941836418628,996.5974736270101
18,Andhra Pradesh,West Godavari,16.63297943925236,81.45912990654196,West Godavari,3936966,1964918,1972048,2652389,12050,67.37139716218022,1003.6286501523218
19,Arunachal Pradesh,Changlang,27.36048479338845,96.37552644628106,Changlang,148226,76948,71278,73174,170,49.3665079000985,926.3138743047252
20,Arunachal Pradesh,East Kameng,27.371194055944056,93.04741486013997,East Kameng,78690,38775,39915,38449,57,48.861354682933026,1029.4003868471953
21,Arunachal Pradesh,East Siang,28.15382352941176,95.06499226006191,East Siang,99214,50116,49098,62576,450,63.07174390710988,979.6871258679863
22,Arunachal Pradesh,Kurung Kumey,28.04853351800553,93.24531994459834,Kurung Kumey,92076,45318,46758,36606,95,39.756288283591815,1031.7754534622004
23,Arunachal Pradesh,Lohit,27.946785273972623,96.59670770547945,Lohit,145726,76221,69505,83062,312,56.998751080795465,911.887799950145
24,Arunachal Pradesh,Lower Dibang Valley,28.32651730103806,95.76567335640142,Lower Dibang Valley,54080,28053,26027,31849,207,58.89238165680474,927.7795601183474
25,Arunachal Pradesh,Lower Subansiri,27.70849297297297,93.96226108108112,Lower Subansiri,83030,41843,41187,54057,381,65.1053835962905,984.3223478240088
26,Arunachal Pradesh,Papum Pare,27.273529716981127,93.54468183962264,Papum Pare,176573,89182,87391,121048,2477,68.55408244748631,979.9174721356328
27,Arunachal Pradesh,Tawang,27.680683962264148,91.82504245283016,Tawang,49977,29151,20826,26073,96,52.169998199171616,714.4180302562519
28,Arunachal Pradesh,Tirap,26.94406229508198,95.41470327868862,Tirap,111975,57604,54371,47974,98,42.843491850859564,943.8754253176862
29,Arunachal Pradesh,Upper Siang,28.8309244897959,95.00155765306124,Upper Siang,35320,18699,16621,18195,97,51.514722536806346,888.8710626236697
30,Arunachal Pradesh,Upper Subansiri,28.277196566523585,93.8991435622318,Upper Subansiri,83448,41758,41690,45278,139,54.25893969897421,998.371569519613
31,Arunachal Pradesh,West Kameng,27.46486582278483,92.65015750452083,West Kameng,83947,46155,37792,48492,202,57.76501840446948,818.8061965117539
32,Arunachal Pradesh,West Siang,28.106296920289843,94.53510344202908,West Siang,112274,58168,54106,64746,303,57.66784829969539,930.1677898500894
33,Assam,Barpeta,26.427872264631056,90.97912010178116,Barpeta,1693622,867004,826618,897058,2078,52.9668367557814,953.4189000281428
34,Assam,Bongaigaon,26.45012521994133,90.6734296187684,Bongaigaon,738804,375818,362986,434078,2523,58.75414859692151,965.8558131861699
35,Assam,Cachar,24.815570668693017,92.86849650455927,Cachar,1736617,886284,850333,1174128,5316,67.61007176596797,959.4362529392384
36,Assam,Darrang,26.58463215962442,92.04141338028155,Darrang,928500,475273,453227,487039,1166,52.4543887991384,953.6140281480328
37,Assam,Dhemaji,27.586533438485816,94.71336908517353,Dhemaji,686133,351249,334884,423028,1192,61.65393589872517,953.4091200259645
38,Assam,Dibrugarh,27.30612284482757,95.0998282327587,Dibrugarh,1326335,676434,649901,884531,8817,66.68986342062902,960.7751827968434
39,Assam,Goalpara,26.017277777777807,90.59869891598912,Goalpara,1008183,513292,494891,563577,1364,55.90026810608788,964.1510095618089
40,Assam,Golaghat,26.377219709794485,93.82583397823468,Golaghat,1066888,543161,523727,721764,3073,67.6513373475004,964.2205533902471
41,Assam,Hailakandi,24.457496089385486,92.59154664804475,Hailakandi,659296,337890,321406,407366,1211,61.78802844245984,951.2148924206102
42,Assam,Jorhat,26.76244824016563,94.30197722567289,Jorhat,1092256,556805,535451,794929,5651,72.7786343128351,961.6490512836631
43,Assam,Kamrup,26.170939452054807,91.58863273972592,Kamrup,1517542,778461,739081,995319,3109,65.58757517090137,949.4130084872588
44,Assam,Karbi Anglong,26.08966454598031,93.11536570271832,Karbi Anglong,956313,490167,466146,557214,1923,58.26690633715113,950.9942529790867
45,Assam,Karimganj,24.69660712250711,92.3679498575498,Karimganj,1228686,625864,602822,795297,1933,64.72744053403392,963.1836948602253
46,Assam,Kokrajhar,26.497246635730868,90.13997470997688,Kokrajhar,887142,452905,434237,489305,1218,55.15520626912039,958.7816429494044
47,Assam,Lakhimpur,27.14128805970149,94.0775949253732,Lakhimpur,1042137,529674,512463,683486,1948,65.58504304136596,967.506428482425
48,Assam,Nagaon,26.26462170626351,92.9306191144708,Nagaon,2823768,1439112,1384656,1710716,5121,60.582739091880065,962.1599986658439
49,Assam,Nalbari,26.46323767605632,91.40598521126763,Nalbari,771639,396006,375633,531771,1631,68.91447943921963,948.5538097907607
50,Assam,Sonitpur,26.73514926829268,92.85197804878044,Sonitpur,1924110,983904,940206,1108572,4358,57.614793333021495,955.5871304517514
51,Assam,Tinsukia,27.53549291139241,95.69055949367085,Tinsukia,1327929,680231,647698,798322,5135,60.11782256430879,952.173599850639
52,Bihar,Araria,26.211528119180603,87.30766554934816,Araria,2811569,1463333,1348236,1195768,2561,42.530274021373835,921.3459957507963
53,Bihar,Aurangabad,24.774291867469877,84.45986024096379,Aurangabad,2540073,1318684,1221389,1466002,2362,57.71495543632014,926.218108356513
54,Bihar,Aurangabad,24.774291867469877,84.45986024096379,Aurangabad,3701282,1924469,1776813,2503837,23258,67.64783121091557,923.2744201127688
55,Maharashtra,Aurangabad,20.0979228832952,75.32072196796334,Aurangabad,2540073,1318684,1221389,1466002,2362,57.71495543632014,926.218108356513
56,Maharashtra,Aurangabad,20.0979228832952,75.32072196796334,Aurangabad,3701282,1924469,1776813,2503837,23258,67.64783121091557,923.2744201127688
57,Bihar,Banka,24.832355642023337,86.8664916342413,Banka,2034763,1067140,967623,965321,1704,47.44144649770023,906.7441947635737
58,Bihar,Begusarai,25.54302613168723,86.12560144032932,Begusarai,2970541,1567660,1402881,1548673,4644,52.13437552284247,894.888560019392
59,Bihar,Bhagalpur,25.277192885375477,87.04213814229242,Bhagalpur,3037766,1615663,1422103,1573066,6764,51.78364627163514,880.1977887715445
60,Bihar,Bhojpur,25.50666439393939,84.49407803030304,Bhojpur,2728407,1430380,1298027,1599151,3661,58.61116028510409,907.4700429256561
61,Bihar,Buxar,25.48593018867924,84.08808081760995,Buxar,1706352,887977,818375,989807,1784,58.00719898356259,921.6173391878393
62,Bihar,Darbhanga,26.146187719298258,85.97387352472099,Darbhanga,3937385,2059949,1877436,1816634,6280,46.138084032930486,911.3992627972829
63,Bihar,Gaya,24.7266541547278,84.94291217765044,Gaya,4391418,2266566,2124852,2297613,6856,52.32052608064184,937.4763408610206
64,Bihar,Gopalganj,26.44874364161851,84.34636127167629,Gopalganj,2562012,1267666,1294346,1382998,3707,53.98093373489273,1021.0465532719186
65,Bihar,Jamui,24.78418380462726,86.26316298200514,Jamui,1760405,916064,844341,858588,1839,48.77218594584769,921.7052520347924
66,Bihar,Jehanabad,25.155679045643165,84.9208124481328,Jehanabad,1125313,585582,539731,618881,1106,54.99634323961422,921.7001205638152
67,Bihar,Katihar,25.56565356037151,87.70466083591326,Katihar,3071029,1600430,1470599,1280190,2941,41.68602771253544,918.8774266915766
68,Bihar,Khagaria,25.53558891454964,86.56593256351037,Khagaria,1666886,883786,783100,768028,1580,46.07561644887533,886.074230639544
69,Bihar,Kishanganj,26.324336758321294,87.95045007235886,Kishanganj,1690400,866970,823430,745056,1093,44.07572172266919,949.7791157710186
70,Bihar,Lakhisarai,25.183449321266963,86.12825701357468,Lakhisarai,1000912,526345,474567,507270,1186,50.68077912943396,901.6272596870874
71,Bihar,Madhepura,25.77341929460581,86.8978443983403,Madhepura,2001762,1047559,954203,834577,1397,41.692119242946966,910.8823464835871
72,Bihar,Madhubani,26.41380538172716,86.16328360450552,Madhubani,4487379,2329313,2158066,2155338,5319,48.03111125670464,926.481756638116
73,Bihar,Munger,25.198537962962963,86.54173672839504,Munger,1367765,729041,638724,801817,2653,58.62242417374329,876.1153350771767
74,Bihar,Muzaffarpur,26.18664417177915,85.32745092024543,Muzaffarpur,4801062,2527497,2273565,2509232,10290,52.264103233826184,899.5322249640652
75,Bihar,Nalanda,25.229345508982053,85.48053113772461,Nalanda,2877653,1497060,1380593,1519933,4156,52.818494794195125,922.2028509211387
76,Bihar,Nawada,24.825708836206903,85.61594568965519,Nawada,2219146,1144668,1074478,1091012,1841,49.163597167559054,938.6809100979498
77,Bihar,Pashchim Champaran,27.16064352201258,84.30265911949685,Pashchim Champaran,3935042,2061110,1873932,1759481,3495,44.713144103671574,909.1858270543543
78,Bihar,Patna,25.40297114503818,85.3198433587787,Patna,5838465,3078512,2759953,3459679,40692,59.25665393215511,896.5217611625357
79,Bihar,Purba Champaran,26.68129336734693,85.00382155612242,Purba Champaran,5099371,2681209,2418162,2276957,7719,44.65172273207813,901.8923925736486
80,Bihar,Purnia,25.81714801901739,87.40447606973065,Purnia,3264619,1699370,1565249,1332326,4170,40.81107167482637,921.0760458287483
81,Bihar,Rohtas,24.99170460829495,83.9350762672811,Rohtas,2959918,1543546,1416372,1799832,4594,60.806819648382145,917.609193376809
82,Bihar,Saharsa,25.821270696721303,86.54670819672135,Saharsa,1900661,997174,903487,804996,1668,42.35347597493714,906.047490207326
83,Bihar,Samastipur,25.793205563909765,85.94833323308269,Samastipur,4261566,2230003,2031563,2142880,5379,50.28386278659066,911.0135726274808
84,Bihar,Saran,25.89656077844312,84.82266287425155,Saran,3951862,2022821,1929041,2157454,4509,54.59335371528662,953.6390021657872
85,Bihar,Sheikhpura,25.12472436548223,85.77839390862943,Sheikhpura,636342,329743,306599,328676,631,51.65084184290837,929.8120051070076
86,Bihar,Sheohar,26.458380748663107,85.29539411764709,Sheohar,656246,346673,309573,283698,478,43.23043492836528,892.9827243540743
87,Bihar,Sitamarhi,26.56570069686413,85.61172491289203,Sitamarhi,3423574,1803252,1620322,1436794,3460,41.96766303284229,898.5554986213796
88,Bihar,Siwan,26.1736372013652,84.33766552901022,Siwan,3330464,1675090,1655374,1930175,3834,57.95513778260326,988.2298861553708
89,Bihar,Supaul,26.28157893772896,86.78496465201461,Supaul,2229076,1155283,1073793,1033283,1845,46.35476762568885,929.4631704958872
90,Bihar,Vaishali,25.8134703180212,85.39247597173153,Vaishali,3495021,1844535,1650486,1926740,4810,55.12813799974307,894.7978758874187
91,Chandigarh,Chandigarh,30.7426,76.75872465753424,Chandigarh,1055450,580663,474787,805438,44283,76.31228385996495,817.6636017793453
92,Chhattisgarh,Bastar,19.393866751269048,81.52895126903546,Bastar,1413199,698487,714712,650863,1782,46.05600485140451,1023.2287787746944
93,Chhattisgarh,Bilaspur,22.356942982456143,81.99770350877188,Bilaspur,381956,192764,189192,287620,1574,75.3018672307805,981.469569006661
94,Chhattisgarh,Bilaspur,22.356942982456143,81.99770350877188,Bilaspur,2663629,1351574,1312055,1596560,8566,59.939278330428145,970.7607574576012
95,Himachal Pradesh,Bilaspur,31.3780422907489,76.65316079295157,Bilaspur,381956,192764,189192,287620,1574,75.3018672307805,981.469569006661
96,Himachal Pradesh,Bilaspur,31.3780422907489,76.65316079295157,Bilaspur,2663629,1351574,1312055,1596560,8566,59.939278330428145,970.7607574576012
97,Chhattisgarh,Dhamtari,20.554912627291245,81.7569195519348,Dhamtari,799781,397897,401884,546833,1016,68.37284206551544,1010.0201811021445
98,Chhattisgarh,Durg,21.194463849287164,81.33181639511197,Durg,3343872,1682101,1661771,2303378,16141,68.88355774383709,987.9139243125115
99,Chhattisgarh,Jashpur,22.77286167664669,83.8703962075848,Jashpur,851669,424747,426922,495415,567,58.16989933882765,1005.1206953786607
100,Chhattisgarh,Korba,22.491712499999995,82.57604326923074,Korba,1206640,612915,593725,748759,4544,62.05322217065571,968.6906014700244
101,Chhattisgarh,Koriya,23.50412776859501,82.12515636363635,Koriya,658917,334737,324180,397823,1667,60.375282471085136,968.4618073293361
102,Chhattisgarh,Mahasamund,21.223727037773354,82.65925427435384,Mahasamund,1032754,511967,520787,637963,961,61.772987565286606,1017.2276728773534
103,Chhattisgarh,Raigarh,22.008265068493166,83.27797698630134,Raigarh,1493984,750278,743706,951639,3342,63.6980717330306,991.240580158288
104,Chhattisgarh,Raigarh,22.008265068493166,83.27797698630134,Raigarh,2634200,1344345,1289855,1939994,38570,73.64642016551515,959.4672498502988
105,Maharashtra,Raigarh,18.453257637845976,73.0090609418579,Raigarh,1493984,750278,743706,951639,3342,63.6980717330306,991.240580158288
106,Maharashtra,Raigarh,18.453257637845976,73.0090609418579,Raigarh,2634200,1344345,1289855,1939994,38570,73.64642016551515,959.4672498502988
107,Chhattisgarh,Raipur,20.88603153846152,82.20032759615388,Raipur,4063872,2048186,2015686,2629749,20261,64.71042887177549,984.1323004844287
108,Chhattisgarh,Surguja,23.32719278728607,83.23582493887531,Surguja,2359886,1193129,1166757,1187941,2737,50.33891467638691,977.8967739448124
109,Daman and Diu,Daman,20.431616666666677,72.8392366071429,Daman,191173,124659,66514,150348,1316,78.64499693994445,533.5675723373363
110,Daman and Diu,Junagadh,20.72568199498111,70.83985639899612,Junagadh,2743082,1404356,1338726,1842818,6628,67.18056550988997,953.2668354747657
111,Gujarat,Junagadh,20.929523011609785,70.54733890140345,Junagadh,2743082,1404356,1338726,1842818,6628,67.18056550988997,953.2668354747657
112,Goa,North Goa,15.548723418714054,73.80667997909038,North Goa,818008,416677,401331,663060,23440,81.05788696443066,963.1705133712684
113,Goa,South Goa,15.195278658183785,73.941792596877,South Goa,640537,322463,318074,502427,17624,78.43840402662141,986.3891361179423
114,Gujarat,Ahmadabad,22.605425564971743,72.23898135593227,Ahmadabad,7214225,3788051,3426174,5435760,126341,75.34780243200066,904.4688152297844
115,Gujarat,Amreli,21.04832649310872,71.43457637825426,Amreli,1514190,771049,743141,995459,2538,65.74201388200952,963.805153758062
116,Gujarat,Anand,22.282718206229863,72.57782051557454,Anand,2092745,1087224,1005521,1551253,9902,74.12527565470232,924.8517324856699
117,Gujarat,Banas Kantha,24.258538965517253,71.93205252873561,Banas Kantha,3120506,1610379,1510127,1704923,3424,54.63610709288814,937.7463317641375
118,Gujarat,Bharuch,21.75787276237761,72.67326346710801,Bharuch,1551019,805707,745312,1118276,10257,72.09943914291186,925.0409888458212
119,Gujarat,Bhavnagar,21.70219390341736,72.16272632761141,Bhavnagar,2880365,1490201,1390164,1887255,7297,65.52138357465113,932.8701295999667
120,Gujarat,Gandhinagar,23.193679790026252,72.67221679790026,Gandhinagar,1391753,723864,667889,1030494,12107,74.04287973512541,922.6719383751644
121,Gujarat,Jamnagar,22.410600414263328,69.62062005768233,Jamnagar,2160119,1114192,1045927,1396534,11573,64.65079007221361,938.7313856139696
122,Gujarat,Kachchh,23.48057203301311,68.82192301497916,Kachchh,2092371,1096737,995634,1252319,9631,59.851670664523645,907.8147267758816
123,Gujarat,Kheda,22.88765312500002,73.018803515625,Kheda,2299885,1185727,1114158,1660243,5710,72.18808766525284,939.6412496299738
124,Gujarat,Mahesana,23.529355452865065,72.45545194085031,Mahesana,2035064,1056520,978544,1502645,7759,73.83772697074883,926.1954340665582
125,Gujarat,Narmada,21.70666386292833,73.68403208722742,Narmada,590297,301086,289211,370336,576,62.73723227460075,960.5594414884783
126,Gujarat,Navsari,20.866973318871995,72.86184869848157,Navsari,1329672,678165,651507,1001909,6726,75.35008633708162,960.6909822830727
127,Gujarat,Panch Mahals,22.80435606837605,73.61984598290586,Panch Mahals,2390776,1226961,1163815,1440805,3456,60.26516076788457,948.5346315001048
128,Gujarat,Patan,23.80634198473284,71.75162977099237,Patan,1343734,694397,649337,837913,2231,62.3570587631183,935.1091666582661
129,Gujarat,Porbandar,21.55092351651571,69.71896987722886,Porbandar,585449,300209,285240,393678,1653,67.24377358232742,950.1380704775673
130,Gujarat,Rajkot,22.40603377715488,70.83679439383323,Rajkot,3804558,1974445,1830113,2725056,21785,71.62608639426709,926.8999642937636
131,Gujarat,Sabar Kantha,23.71803594548552,73.13638790459964,Sabar Kantha,2428589,1244231,1184358,1578734,5262,65.00622377849854,951.8795143345568
132,Gujarat,Surat,21.25761372772093,72.93488716344339,Surat,6081322,3402224,2679098,4571410,55694,75.17131965714033,787.4549118458984
133,Gujarat,Surendranagar,22.82672007299272,71.48358740875906,Surendranagar,1756268,909917,846351,1093626,2975,62.269881362070024,930.1408809814521
134,Gujarat,The Dangs,20.801633877551023,73.6883518367347,The Dangs,228291,113821,114470,140968,137,61.749258621671466,1005.7019354952074
135,Gujarat,Vadodara,22.26133739279589,73.49433010291594,Vadodara,4165626,2153736,2011890,2893080,53606,69.45126614823319,934.1395602803686
136,Gujarat,Valsad,20.44238231644259,72.9148584798345,Valsad,1705678,887222,818456,1170657,11020,68.63294244282918,922.4929048197632
137,Haryana,Ambala,30.3503672316384,76.94970310734456,Ambala,1128350,598703,529647,818025,12899,72.49745203172775,884.6573342709156
138,Haryana,Bhiwani,28.728868064516128,76.02110225806452,Bhiwani,1634445,866672,767773,1069871,5292,65.45775477302693,885.8864714678679
139,Haryana,Faridabad,28.14873109756098,77.32718536585368,Faridabad,1809733,966110,843623,1272739,43437,70.32744609287668,873.2163004212771
140,Haryana,Fatehabad,29.57298318584072,75.54608716814157,Fatehabad,942011,495360,446651,557578,3210,59.19017930788494,901.6694928940568
141,Haryana,Gurgaon,28.043894789579163,77.01935130260523,Gurgaon,1514432,816690,697742,1111116,67087,73.3684972319655,854.3535490822711
142,Haryana,Hisar,29.23628731117825,75.84324682779452,Hisar,1743931,931562,812369,1114311,10132,63.89650737328484,872.05038419343
143,Haryana,Jhajjar,28.59651868131869,76.61137142857145,Jhajjar,958405,514667,443738,676091,5034,70.5433506711672,862.1846747508583
144,Haryana,Jind,29.45149821958457,76.29598575667653,Jind,1334152,713006,621146,832758,5263,62.41852502563427,871.1651795356561
145,Haryana,Kaithal,29.96068539094649,76.37698930041155,Kaithal,1074304,571003,503301,646529,3724,60.18119638389133,881.4331973737441
146,Haryana,Karnal,29.703200647249204,76.87488025889972,Karnal,1505324,797712,707612,978013,11163,64.97026553751883,887.0519686302827
147,Haryana,Kurukshetra,30.05652659846548,76.78774680306903,Kurukshetra,964655,510976,453679,646893,7356,67.05951868802836,887.8675319388777
148,Haryana,Mahendragarh,28.1352161458333,76.14018072916659,Mahendragarh,922088,486665,435423,630255,2624,68.35085154562255,894.7078585885569
149,Haryana,Panchkula,30.700897142857134,76.97173238095236,Panchkula,561293,299679,261614,405318,18615,72.2114831291322,872.9807560756676
150,Haryana,Panipat,29.34352134146342,76.92895914634147,Panipat,1205437,646857,558580,786599,10024,65.25426048810515,863.52934265224
151,Haryana,Rewari,28.19164714828897,76.55956007604564,Rewari,900332,474335,425997,636947,5121,70.74579155244955,898.0931198414622
152,Haryana,Rohtak,28.892517647058817,76.53123235294117,Rohtak,1061204,568479,492725,747582,8482,70.44658708410448,866.7426589196787
153,Haryana,Sirsa,29.63583446327684,74.90970480225988,Sirsa,1295189,682582,612607,782897,6287,60.446544867196984,897.4848443117457
154,Himachal Pradesh,Chamba,32.66741814595661,76.39354063116366,Chamba,519080,261320,257760,323842,1615,62.3876859058334,986.3768559620389
155,Himachal Pradesh,Hamirpur,31.67668481012659,76.49767088607594,Hamirpur,454768,217070,237698,358091,2521,78.74146817718045,1095.0292532362832
156,Himachal Pradesh,Hamirpur,31.67668481012659,76.49767088607594,Hamirpur,1104285,593537,510748,653299,1196,59.16036168199332,860.5158566357278
157,Uttar Pradesh,Hamirpur,25.738158381502892,79.82619479768789,Hamirpur,454768,217070,237698,358091,2521,78.74146817718045,1095.0292532362832
158,Uttar Pradesh,Hamirpur,25.738158381502892,79.82619479768789,Hamirpur,1104285,593537,510748,653299,1196,59.16036168199332,860.5158566357278
159,Himachal Pradesh,Kangra,32.14093603238864,76.41205910931173,Kangra,1510075,750591,759484,1152640,8053,76.32998361008559,1011.8479971116094
160,Himachal Pradesh,Kinnaur,31.60667184065933,78.51613736263741,Kinnaur,84121,46249,37872,60699,354,72.15677417054005,818.8717593893922
161,Himachal Pradesh,Kullu,31.90911922077925,77.40922649350647,Kullu,437903,225452,212451,307672,2623,70.26030878984615,942.3336231215513
162,Himachal Pradesh,Mandi,31.635805940594054,76.96556930693067,Mandi,999777,498065,501712,723747,5333,72.39084315802424,1007.3223374459157
163,Himachal Pradesh,Shimla,31.155725451807253,77.62573042168668,Shimla,814010,425039,388971,612642,9177,75.26222036584316,915.1419046252227
164,Himachal Pradesh,Sirmaur,30.682764453961443,77.43184689507493,Sirmaur,529855,276289,253566,362645,2220,68.44230968849968,917.7564072402448
165,Himachal Pradesh,Solan,31.03864311926604,76.94442140672783,Solan,580320,308754,271566,428578,5250,73.85201268265784,879.5545968635224
166,Himachal Pradesh,Una,31.58330388349513,76.18353932038836,Una,521173,263692,257481,399715,2412,76.69526241766171,976.4460051878707
167,Jammu and Kashmir,Doda,33.359614675767915,76.07163720136518,Doda,409936,213641,196295,219083,596,53.443220405136415,918.8077194920451
168,Jammu and Kashmir,Jammu,32.713199095022645,74.8477520361991,Jammu,1529958,813821,716137,1137135,19905,74.32458930245144,879.9686909037737
169,Jammu and Kashmir,Kargil,33.565994894894914,76.63675315315312,Kargil,140802,77785,63017,86236,235,61.246289115211425,810.1433438323584
170,Jammu and Kashmir,Kathua,32.51781678321678,75.58901398601404,Kathua,616435,326109,290326,389204,1443,63.1378815284661,890.2728842196934
171,Jammu and Kashmir,Pulwama,33.88414418604652,75.00921860465118,Pulwama,560440,293064,267376,293958,1537,52.451288273499394,912.3467911445964
172,Jammu and Kashmir,Punch,33.791241290322574,74.29593161290322,Punch,476835,251899,224936,261724,346,54.88774943114495,892.9610677295265
173,Jammu and Kashmir,Srinagar,34.27312898550724,75.11021159420288,Srinagar,1236829,651124,585705,748584,16413,60.52445406761969,899.5291219491219
174,Jammu and Kashmir,Udhampur,33.04770670731707,75.15286951219511,Udhampur,554985,296784,258201,322354,1214,58.083371622656465,869.9963609898108
175,Jharkhand,Bokaro,23.6814965034965,85.98398374125864,Bokaro,2062330,1072807,989523,1273520,9754,61.75151406418953,922.3681426388903
176,Jharkhand,Chatra,24.11619945750453,84.93295804701627,Chatra,1042886,533935,508951,510061,590,48.908605542695945,953.2077874647663
177,Jharkhand,Deoghar,24.33070100755672,86.75697632241814,Deoghar,1492073,775022,717051,793538,1944,53.18359088328788,925.2008330086113
178,Jharkhand,Dhanbad,23.854509090909097,86.40372924901185,Dhanbad,2684487,1405956,1278531,1722204,11568,64.15393332133849,909.3677184776764
179,Jharkhand,Dumka,24.275006125574265,87.27662450229711,Dumka,1321442,668514,652928,672409,1193,50.88448830898366,976.6856041907873
180,Jharkhand,Garhwa,24.082114689265527,83.68664265536722,Garhwa,1322784,683575,639209,653476,565,49.4015651837337,935.097099806166
181,Jharkhand,Giridih,24.30578509874329,86.08710915619386,Giridih,2445474,1258098,1187376,1253475,1944,51.256934238515726,943.7865730650553
182,Jharkhand,Godda,24.8189,87.2941735483871,Godda,1313551,677927,635624,604519,874,46.02173802159185,937.5994760497812
183,Jharkhand,Gumla,23.078532948929148,84.55056787479396,Gumla,1025213,514390,510823,559720,831,54.5954840603855,993.0655728144015
184,Jharkhand,Jamtara,23.97873318077801,86.95325080091534,Jamtara,791042,404830,386212,426312,808,53.89246083014555,954.01032532174
185,Jharkhand,Latehar,23.72511185840708,84.48298743362837,Latehar,726978,369666,357312,350682,340,48.23832358063105,966.5806430669847
186,Jharkhand,Lohardaga,23.488796043165483,84.6605169064748,Lohardaga,461790,232629,229161,259707,351,56.239199636198265,985.0921424242033
187,Jharkhand,Pakur,24.57260428082189,87.69691969178076,Pakur,900422,452661,447761,352881,328,39.19062395188034,989.1751222217067
188,Jharkhand,Palamu,24.196925968109337,84.20310842824594,Palamu,1939869,1006302,933567,1024563,2155,52.81609222066026,927.720505375126
189,Jharkhand,Ranchi,23.184235061391547,85.31781937244203,Ranchi,2914253,1494937,1419316,1911433,22538,65.58912352496506,949.4152596397039
190,Jharkhand,Sahibganj,24.93667989690721,87.68264097938142,Sahibganj,1150567,589391,561176,483263,591,42.00216067382429,952.1285530318584
191,Jharkhand,Simdega,22.608760391198054,84.59193691931536,Simdega,599578,300309,299269,343483,423,57.28745884605506,996.5369003259975
192,Karnataka,Bagalkot,16.15860676328503,75.64526070853468,Bagalkot,1889752,950111,939641,1113412,3745,58.9184189248113,988.98023494097
193,Karnataka,Bangalore Rural,12.936827087794448,77.47369314775169,Bangalore Rural,990923,509172,481751,688749,3729,69.50580418458347,946.1458996174181
194,Karnataka,Belgaum,16.16107219152853,74.72329042357275,Belgaum,4779661,2423063,2356598,3052032,17560,63.85457043920061,972.5698423854435
195,Karnataka,Bellary,15.074377548209377,76.47228471074374,Bellary,2452595,1236954,1215641,1421621,9626,57.96395246667305,982.7697715517311
196,Karnataka,Bidar,17.950361730769224,77.19459961538459,Bidar,1703300,870665,832635,1042673,3971,61.21487700346386,956.3207433398609
197,Karnataka,Bijapur,16.84015316666667,75.95909166666665,Bijapur,255230,128663,126567,86919,117,34.05516592877013,983.7093803191283
198,Karnataka,Bijapur,16.84015316666667,75.95909166666665,Bijapur,2177331,1111022,1066309,1248268,4987,57.330190035414915,959.755072356803
199,Karnataka,Chikmagalur,13.425288289676422,75.67626502311249,Chikmagalur,1137961,566622,571339,818345,4510,71.91327295047897,1008.3247738351141
200,Karnataka,Chitradurga,14.29102220394736,76.57821957236843,Chitradurga,1659456,840843,818613,1087392,5711,65.52701608237881,973.5622464598029
201,Karnataka,Davanagere,14.330414586709884,75.91723841166937,Davanagere,1945497,986400,959097,1308540,7320,67.25993409396159,972.3205596107056
202,Karnataka,Dharwad,15.343831376975173,75.13831264108359,Dharwad,1847023,937206,909817,1301664,15013,70.47362160622797,970.7759019895306
203,Karnataka,Gadag,15.507128256880746,75.64861302752298,Gadag,1064570,537147,527423,700177,3373,65.77087462543562,981.8969481352405
204,Karnataka,Gulbarga,17.070459515951594,76.87503850385033,Gulbarga,2566326,1301755,1264571,1427368,9752,55.61912243417243,971.435485171941
205,Karnataka,Hassan,12.945098749999998,76.11049549999997,Hassan,1776421,883667,892754,1225256,4851,68.9732895524203,1010.2832854457619
206,Karnataka,Haveri,14.737582809224318,75.3961230607966,Haveri,1597668,819128,778540,1085443,2456,67.93920889696733,950.4497465597562
207,Karnataka,Kodagu,12.39684468085106,75.79336595744688,Kodagu,554519,274608,279911,412877,3308,74.4567814628534,1019.311163549496
208,Karnataka,Kolar,13.312799881235172,78.01376947743476,Kolar,1536401,776396,760005,1016219,5051,66.14282339050807,978.8883507900607
209,Karnataka,Koppal,15.651253271028034,76.1617048598131,Koppal,1389920,699926,689994,809085,2135,58.210904224703576,985.8099284781534
210,Karnataka,Mandya,12.574901806239744,76.81570098522172,Mandya,1805769,905085,900684,1149649,3367,63.66534146947921,995.1374732759906
211,Karnataka,Mysore,12.248100259403367,76.52881802853437,Mysore,3001127,1511600,1489527,1962180,28397,65.38143837298455,985.3975919555438
212,Karnataka,Raichur,16.050795353982295,76.87368606194688,Raichur,1928812,964511,964301,979769,5200,50.79650064391967,999.7822730896796
213,Karnataka,Shimoga,14.063845885634592,75.17882078103197,Shimoga,1752753,877415,875338,1263016,8791,72.058983781514,997.6328191334774
214,Karnataka,Tumkur,13.592467760074973,77.02297966260545,Tumkur,2678980,1350594,1328386,1813391,7971,67.68960574547029,983.5568646092016
215,Karnataka,Udupi,13.450404228534568,74.72009990316337,Udupi,1177361,562131,615230,926429,9070,78.68691081155228,1094.4601881056194
216,Kerala,Alappuzha,9.542602965599087,76.38010796263319,Alappuzha,2127789,1013142,1114647,1852797,28842,87.07616215705599,1100.1883250324238
217,Kerala,Ernakulam,10.004879301987431,76.26957729035381,Ernakulam,3282388,1619557,1662831,2855676,88737,86.99995247362591,1026.719652349377
218,Kerala,Idukki,9.80480963855423,77.04586641566264,Idukki,1108974,552808,556166,923010,8250,83.23098647939446,1006.0744417591641
219,Kerala,Kannur,11.941523076923056,75.35209891725934,Kannur,2523003,1181446,1341557,2138434,32653,84.75748938863728,1135.521217220254
220,Kerala,Kasaragod,12.33310309912974,75.07768497134369,Kasaragod,1307375,628613,678762,1037492,10378,79.35687924275744,1079.7772238245152
221,Kerala,Kollam,8.929388820570157,76.6360775852431,Kollam,2635375,1246968,1388407,2240273,31542,85.00775032016317,1113.426326898525
222,Kerala,Kottayam,9.643701174068417,76.46059673302705,Kottayam,1974551,968289,1006262,1749798,37849,88.61751355118201,1039.2165975240864
223,Kerala,Kozhikode,11.392924270557026,75.71158720159153,Kozhikode,3086293,1470942,1615351,2615443,36791,84.74383345975252,1098.1745031415244
224,Kerala,Malappuram,10.97329875666072,75.93910775606876,Malappuram,4112920,1960328,2152592,3311315,27909,80.51007556675063,1098.0774645875588
225,Kerala,Palakkad,10.784926903553291,76.49980490693744,Palakkad,2809934,1359478,1450456,2239492,27162,79.69909613535407,1066.9212741949484
226,Kerala,Thiruvananthapuram,8.537101759082221,76.88711502868073,Thiruvananthapuram,3301427,1581678,1719749,2785408,71621,84.36981947503307,1087.2940004223362
227,Kerala,Thrissur,10.458932647907687,76.12321940836945,Thrissur,3121200,1480763,1640437,2678548,56148,85.81789055491478,1107.8322459434764
228,Kerala,Wayanad,11.715277464788736,76.07587007042254,Wayanad,817420,401684,415736,645585,4712,78.97837097208289,1034.9827227372762
229,Madhya Pradesh,Anuppur,23.18184220430107,81.86560000000007,Anuppur,749237,379114,370123,436595,1290,58.27194866243926,976.2841783737873
230,Madhya Pradesh,Ashoknagar,24.63098846153845,77.82974493927134,Ashoknagar,845071,443837,401234,469109,619,55.51119373401762,904.0120584809288
231,Madhya Pradesh,Balaghat,21.80020720640569,80.42170053380796,Balaghat,1701698,842178,859520,1147623,1712,67.43987476038639,1020.591846379269
232,Madhya Pradesh,Barwani,21.702135714285724,74.91004719710673,Barwani,1385881,699340,686541,549926,1158,39.68060749804636,981.6984585466297
233,Madhya Pradesh,Betul,21.964626315789477,77.7873428189117,Betul,1575362,799236,776126,939769,2109,59.654162027521295,971.0848860661932
234,Madhya Pradesh,Bhind,26.35951126187245,78.7618324287653,Bhind,1703005,926843,776162,1094917,1166,64.29323460588783,837.4255402479168
235,Madhya Pradesh,Bhopal,23.480726143790854,77.39246623093679,Bhopal,2371061,1236130,1134931,1660690,40788,70.03995257819179,918.1323970779772
236,Madhya Pradesh,Burhanpur,21.364567254408065,76.24460478589425,Burhanpur,757847,388504,369343,408679,986,53.92632022030832,950.6800444783065
237,Madhya Pradesh,Chhatarpur,24.813637376460004,79.56449299191374,Chhatarpur,1762375,936121,826254,943033,1880,53.50921341939144,882.635898564395
238,Madhya Pradesh,Chhindwara,22.227966971713823,78.76413136439254,Chhindwara,2090922,1064468,1026454,1294198,3588,61.89604394616346,964.2882641845504
239,Madhya Pradesh,Damoh,23.76624407960196,79.47049303482588,Damoh,1264219,661873,602346,747715,1432,59.1444203891889,910.0628066109359
240,Madhya Pradesh,Datia,25.90226439560441,78.63916571428574,Datia,786754,420157,366597,491445,616,62.46488737267304,872.5238422780056
241,Madhya Pradesh,Dewas,22.7851110021322,76.46088805970157,Dewas,1563715,805359,758356,925369,3518,59.17759949862986,941.6372077545542
242,Madhya Pradesh,Dhar,22.572681718963157,75.1105620736698,Dhar,2185793,1112725,1073068,1077338,2388,49.28819883676084,964.3604664225213
243,Madhya Pradesh,Dindori,22.83738437047757,81.04332966714911,Dindori,704524,351913,352611,378714,554,53.754591752729496,1001.9834447718612
244,Madhya Pradesh,Guna,24.49043927178156,77.2235895968791,Guna,1241519,649362,592157,653980,2482,52.67579473209834,911.9058398859188
245,Madhya Pradesh,Gwalior,26.04074441964285,78.12782433035713,Gwalior,2032036,1090327,941709,1357210,15779,66.79064740978998,863.6941027783408
246,Madhya Pradesh,Harda,22.227659781121783,77.07022571819435,Harda,570465,294838,275627,352550,986,61.80046102740746,934.8421845216695
247,Madhya Pradesh,Hoshangabad,22.595268801996703,78.02168094841929,Hoshangabad,1241350,648725,592625,810644,2871,65.3034196640754,913.5226791013141
248,Madhya Pradesh,Indore,22.680265752128648,75.9133801324502,Indore,3276697,1699627,1577070,2309130,48691,70.47127030665331,927.8918256770456
249,Madhya Pradesh,Jabalpur,23.18525572327043,79.98328754716981,Jabalpur,2463289,1277278,1186011,1756468,20443,71.30580293258323,928.5457042241392
250,Madhya Pradesh,Jhabua,22.419578015397768,74.40921616766468,Jhabua,1025048,515023,510025,352081,744,34.34775737331325,990.2955790323928
251,Madhya Pradesh,Katni,23.724416229116937,80.33819665871127,Katni,1292042,662013,630029,790773,2179,61.20335097465872,951.6867493538647
252,Madhya Pradesh,Mandla,22.70348712446353,80.38600543633753,Mandla,1054905,525272,529633,604962,912,57.347533664168814,1008.3023652507653
253,Madhya Pradesh,Mandsaur,24.19278764044944,75.43588667736759,Mandsaur,1340411,682851,657560,834591,2324,62.26381311403741,962.9626375300029
254,Madhya Pradesh,Morena,26.37313504531724,77.88447341389724,Morena,1965970,1068417,897553,1179685,1781,60.00523914403577,840.0774229537718
255,Madhya Pradesh,Neemuch,24.70311893333336,75.06608186666664,Neemuch,826067,422653,403414,508834,1945,61.59718279510016,954.4803893501288
256,Madhya Pradesh,Panna,24.451325840092657,80.21133001158752,Panna,1016520,533480,483040,552559,653,54.35790737024357,905.451000974732
257,Madhya Pradesh,Raisen,23.292518206521724,78.16305495923909,Raisen,1331597,700358,631239,820220,1141,61.59671432122481,901.3090448028008
258,Madhya Pradesh,Rajgarh,23.785499026425583,76.66431223922116,Rajgarh,1545814,790212,755602,804245,1611,52.0272814193687,956.201626905185
259,Madhya Pradesh,Ratlam,23.503562290502792,75.14895782122909,Ratlam,1455069,738241,716828,825880,3644,56.75882037209232,970.9945668149019
260,Madhya Pradesh,Rewa,24.861184625158856,81.57572465057183,Rewa,2365106,1225100,1140006,1441757,3406,60.959508791572134,930.5411803118113
261,Madhya Pradesh,Sagar,23.800318709677374,78.71940357771273,Sagar,2378458,1256257,1122201,1545719,4546,64.98828232409402,893.2893508255079
262,Madhya Pradesh,Satna,24.62777621776502,80.75547048710598,Satna,2228935,1157495,1071440,1371781,3754,61.54423525136444,925.6541064972203
263,Madhya Pradesh,Sehore,22.9297199679658,77.06780202883085,Sehore,1311332,683743,627589,780362,1566,59.509109821158944,917.872650981436
264,Madhya Pradesh,Seoni,22.33230487804874,79.66053863928111,Seoni,1379131,695879,683252,864194,1182,62.66221265420037,981.8546040331724
265,Madhya Pradesh,Shahdol,23.44859864559819,81.4596831828442,Shahdol,1066063,540021,526042,604194,1733,56.67526215617651,974.1139696419214
266,Madhya Pradesh,Shajapur,23.566620317220547,76.33555181268885,Shajapur,1512681,780520,732161,894612,1382,59.14082347831433,938.0425869932865
267,Madhya Pradesh,Sheopur,25.78014810996563,77.16911116838484,Sheopur,687861,361784,326077,328025,273,47.687686901859536,901.3029874179068
268,Madhya Pradesh,Shivpuri,25.37802451874367,77.74861600810549,Shivpuri,1726050,919795,806255,900846,1852,52.19118797253846,876.5594507471774
269,Madhya Pradesh,Sidhi,24.17547189952905,82.1053783359498,Sidhi,1127033,575912,551121,600785,837,53.306779836970165,956.9534928947478
270,Madhya Pradesh,Tikamgarh,25.14099852104666,78.89357064846428,Tikamgarh,1445166,760355,684811,747940,1090,51.75460812114318,900.6464085854634
271,Madhya Pradesh,Ujjain,23.319288862745065,75.80383717647058,Ujjain,1986864,1016289,970575,1240990,7501,62.45973554304673,955.0187003893577
272,Madhya Pradesh,Umaria,23.59601063063061,80.90879477477475,Umaria,644758,330674,314084,356672,839,55.318739744214106,949.829741679116
273,Madhya Pradesh,Vidisha,23.82838307984792,77.9013507604563,Vidisha,1458875,769568,689307,862918,1926,59.1495501670808,895.7064223044617
274,Maharashtra,Akola,20.746310479041902,77.12122320359276,Akola,1813906,932334,881572,1411281,6163,77.80342531531403,945.553846582877
275,Maharashtra,Amravati,21.16520991810736,77.67583503184723,Amravati,2888445,1480768,1407677,2251875,9438,77.96149831483721,950.639803129187
276,Maharashtra,Bhandara,21.211792649727748,80.10950199637024,Bhandara,1200334,605520,594814,899860,2932,74.9674673882436,982.3193288413264
277,Maharashtra,Bid,18.952353340080982,75.69319706477731,Bid,2585049,1349106,1235943,1718507,5614,66.4787011774245,916.1200083610925
278,Maharashtra,Buldana,20.56680611183355,76.39017880364096,Buldana,2586258,1337560,1248698,1879874,4767,72.68702503771858,933.5641017973026
279,Maharashtra,Chandrapur,20.095609090909075,79.31556380471388,Chandrapur,2204307,1123834,1080473,1578615,8239,71.61502458595831,961.4168996488805
280,Maharashtra,Dhule,21.274018690400517,74.58719071837263,Dhule,2050862,1054031,996831,1293916,6065,63.09132452597981,945.7321463979712
281,Maharashtra,Gondiya,21.225008411214997,80.17522698598128,Gondiya,1322507,661554,660953,1004243,2866,75.93479656440381,999.0915329663187
282,Maharashtra,Hingoli,19.59525302245251,77.09239412780653,Hingoli,1177345,606294,571051,790743,1221,67.16323592489883,941.871435310262
283,Maharashtra,Jalgaon,20.8828943415638,75.55140421810695,Jalgaon,4229917,2197365,2032552,2891882,14297,68.36734621506758,924.9951646631306
284,Maharashtra,Jalna,19.984612534818933,75.98473607242339,Jalna,1959046,1011473,947573,1195523,3791,61.02577479038267,936.8248089667247
285,Maharashtra,Kolhapur,16.44881301587301,74.12897150793648,Kolhapur,3876001,1980658,1895343,2825845,22269,72.90619894060914,956.9259306755633
286,Maharashtra,Latur,18.348687268993856,76.75812607802874,Latur,2454196,1273140,1181056,1650672,6217,67.25917571375717,927.6717407355044
287,Maharashtra,Nagpur,21.196556862745105,79.02166176470584,Nagpur,4653570,2384975,2268595,3673808,57964,78.94601349071789,951.2028427970943
288,Maharashtra,Nanded,19.209316983017,77.6829048951049,Nanded,3361292,1730075,1631217,2189425,7548,65.13641183211693,942.8591246044247
289,Maharashtra,Nandurbar,21.523175625248147,74.32638757443429,Nandurbar,1648295,833170,815125,906509,2579,54.99676938897466,978.3417549839769
290,Maharashtra,Nashik,20.266912871287143,74.03824168316828,Nashik,6107187,3157186,2950001,4345366,45039,71.15167752354725,934.3766886081467
291,Maharashtra,Osmanabad,18.19459456066944,75.99495575313809,Osmanabad,1657576,861535,796041,1137810,3209,68.64300641418554,923.9798731334189
292,Maharashtra,Parbhani,19.31032425249168,76.70163338870431,Parbhani,1836086,942870,893216,1157814,3982,63.058810970727954,947.3373847932377
293,Maharashtra,Pune,18.51696171428573,74.12922881632647,Pune,9429408,4924105,4505303,7171723,235018,76.05698045943076,914.9486048733729
294,Maharashtra,Ratnagiri,17.210195070127703,73.25725893866404,Ratnagiri,1615069,761121,853948,1199392,7752,74.26258568519364,1121.9608971503874
295,Maharashtra,Sangli,17.154930181086502,74.70713822937628,Sangli,2822143,1435728,1386415,2049467,13212,72.62094798172878,965.6529649070019
296,Maharashtra,Satara,17.6737908974359,74.18052064102558,Satara,3003741,1510842,1492899,2225694,14093,74.09740054152472,988.1238408781329
297,Maharashtra,Sindhudurg,16.170948049777163,73.51329008172343,Sindhudurg,849651,417332,432319,666067,3517,78.39301077736623,1035.9114565861232
298,Maharashtra,Solapur,17.837357937584812,75.42394823609216,Solapur,4317756,2227852,2089904,2910676,15145,67.41177593175715,938.080267450441
299,Maharashtra,Thane,19.698767747440264,72.79882742564581,Thane,11060148,5865078,5195070,8227161,256170,74.38563209099914,885.7631560910187
300,Maharashtra,Wardha,20.80743024390242,78.57259105691062,Wardha,1300774,668385,632389,1019458,4313,78.37318396585418,946.1448117477203
301,Maharashtra,Washim,20.282282394366213,77.25502394366208,Washim,1197160,620302,576858,869917,1875,72.66505730228207,929.9631469832436
302,Maharashtra,Yavatmal,20.04258346738159,78.05326371760479,Yavatmal,2772348,1419965,1352383,2022574,6094,72.9552711275785,952.4058691587469
303,Manipur,Bishnupur,24.50712111801243,93.8246236024845,Bishnupur,237399,118782,118617,156333,676,65.85242566312411,998.6109006415113
304,Manipur,Chandel,24.2635812987013,94.09443844155844,Chandel,144182,74579,69603,90302,184,62.630564148090606,933.2788050255434
305,Manipur,Churachandpur,24.30309718875504,93.38671506024085,Churachandpur,274143,138820,135323,195935,837,71.4718230996232,974.8091053162368
306,Manipur,Senapati,25.08465586034914,94.03366234413956,Senapati,479148,247323,231825,264477,256,55.19735029677678,937.3370046457467
307,Manipur,Tamenglong,24.98312942238265,93.49450740072204,Tamenglong,140651,72371,68280,85006,125,60.43753688206981,943.4718326401459
308,Manipur,Thoubal,24.545392553191498,93.97959893617023,Thoubal,422168,210845,211323,269304,880,63.79071838699285,1002.2670682254737
309,Manipur,Ukhrul,25.05900314960629,94.44129566929138,Ukhrul,183998,94718,89280,129829,276,70.56000608702269,942.5874701746236
310,Meghalaya,East Garo Hills,25.82728228228228,90.64684924924916,East Garo Hills,317917,161223,156694,192147,288,60.439359958731366,971.908474597297
311,Meghalaya,East Khasi Hills,25.303763888888884,91.75922519841272,East Khasi Hills,825922,410749,415173,578030,5032,69.98602773627533,1010.7705679137381
312,Meghalaya,Jaintia Hills,25.33959557069844,92.37608160136298,Jaintia Hills,395124,196285,198839,187527,510,47.46029094663954,1013.011692182286
313,Meghalaya,South Garo Hills,25.240568578553614,90.64560349127176,South Garo Hills,142334,73170,69164,82062,179,57.654530892126964,945.2507858411917
314,Meghalaya,West Garo Hills,25.495285185185185,90.03709947089942,West Garo Hills,643291,324159,319132,358702,1630,55.76045677617129,984.4921782211816
315,Meghalaya,West Khasi Hills,25.500889926739926,91.25364542124538,West Khasi Hills,383461,193715,189746,230678,149,60.15683472373984,979.5111374958057
316,Mizoram,Aizawl,23.90781335453101,92.85359459459472,Aizawl,400309,199270,201039,340595,4019,85.08302336445097,1008.877402519195
317,Mizoram,Champhai,23.54166580976866,93.24221799485862,Champhai,125745,63388,62357,100802,186,80.16382361127678,983.7350918154856
318,Mizoram,Kolasib,24.2020004347826,92.73470391304348,Kolasib,83955,42918,41037,65895,367,78.48847596926926,956.1722354256955
319,Mizoram,Lawngtlai,22.36102843137253,92.66964156862753,Lawngtlai,117894,60599,57295,62861,162,53.31993146385736,945.477648146009
320,Mizoram,Lunglei,23.007717036172675,92.63512555425892,Lunglei,161428,82891,78537,121122,482,75.03159303218773,947.4731876802066
321,Mizoram,Mamit,23.73852942502819,92.4330803833147,Mamit,86364,44828,41536,60191,90,69.69454865453199,926.5637547961096
322,Mizoram,Saiha,22.35744801061008,93.02827931034489,Saiha,56574,28594,27980,42233,168,74.650899706579,978.5269636986781
323,Mizoram,Serchhip,23.263864705882344,92.914158496732,Serchhip,64937,32851,32086,54476,131,83.89054006190617,976.713037654866
324,Nagaland,Dimapur,25.814176811594223,93.75074057971014,Dimapur,378811,197394,181417,278037,3303,73.39728782955089,919.0603564444715
325,Nagaland,Kohima,25.60311428571428,93.78600657596373,Kohima,267988,138966,129022,197489,1928,73.69322506977925,928.4429284861045
326,Nagaland,Mokokchung,26.478911764705888,94.522426006192,Mokokchung,194622,101092,93530,159494,537,81.95065306080505,925.1968503937007
327,Nagaland,Mon,26.69207374301676,95.03072988826828,Mon,250260,131753,118507,119626,178,47.80068728522337,899.4633898279357
328,Nagaland,Phek,25.63272986577182,94.56814563758392,Phek,163418,83743,79675,105893,170,64.79885936677722,951.4228054882199
329,Nagaland,Tuensang,26.21104453280316,94.85809880715708,Tuensang,196596,101933,94663,117511,155,59.77283362835459,928.6786418529819
330,Nagaland,Wokha,26.202611551155112,94.1990815181518,Wokha,166343,84505,81838,128208,198,77.07447863751405,968.4397372936513
331,Nagaland,Zunheboto,26.028178205128206,94.50026666666668,Zunheboto,140757,71217,69540,102881,261,73.09121393607423,976.4522515691478
332,Orissa,Baleshwar,21.48570932311624,87.08085828011933,Baleshwar,2320529,1185787,1134742,1621232,7370,69.8647592854905,956.9526398923247
333,Orissa,Bhadrak,20.95262735257214,86.81496204516931,Bhadrak,1506337,760260,746077,1094140,2637,72.635804604149,981.3445400257807
334,Orissa,Cuttack,20.407640646029623,85.7776810228802,Cuttack,2624470,1352760,1271710,2011469,15046,76.64286503560719,940.0854549217895
335,Orissa,Dhenkanal,20.79887159353349,85.53226836027711,Dhenkanal,1192811,612593,580218,829910,1810,69.57598479557952,947.1508815804294
336,Orissa,Gajapati,19.121080882352945,84.14015091911759,Gajapati,577817,282882,294935,262537,635,45.436011747664054,1042.6078718334854
337,Orissa,Ganjam,19.2632617564534,84.80297710437702,Ganjam,3529031,1779218,1749813,2210050,9049,62.62483950976912,983.4730763740025
338,Orissa,Jharsuguda,21.827058566978184,83.93581682242987,Jharsuguda,579505,296690,282815,405879,2498,70.03891252016807,953.2340153021672
339,Orissa,Kalahandi,19.784253092783523,83.1124043814433,Kalahandi,1576869,787101,789768,802036,1953,50.86256372596583,1003.3883834476135
340,Orissa,Kandhamal,20.092878624813142,84.02216352765326,Kandhamal,733110,359945,373165,399786,768,54.53288046814257,1036.7278334189946
341,Orissa,Kendrapara,20.606319815982264,86.83763247572003,Kendrapara,1440361,717814,722547,1089265,1628,75.62444414976524,1006.5936301047346
342,Orissa,Khordha,20.054162322274863,85.52234834123229,Khordha,2251673,1167137,1084536,1749936,35701,77.7171463174271,929.2276742147666
343,Orissa,Koraput,18.82627794779476,82.81278469846964,Koraput,1379647,678809,700838,568090,3988,41.17647485190052,1032.4524277079413
344,Orissa,Malkangiri,18.25227930367506,81.98293636363628,Malkangiri,613192,303624,309568,244706,448,39.906913332202635,1019.5768450451875
345,Orissa,Mayurbhanj,21.897621545157754,86.4030408052231,Mayurbhanj,2519738,1256213,1263525,1369397,2950,54.34680113567363,1005.8206689470655
346,Orissa,Nayagarh,20.192895622119817,85.05614700460825,Nayagarh,962789,502636,460153,688362,1163,71.49666230087797,915.4795915931211
347,Orissa,Nuapada,20.471309512195116,82.59152536585364,Nuapada,610382,301962,308420,299383,757,49.048464731921975,1021.3867970141938
348,Orissa,Puri,19.83509174603177,85.86698989898981,Puri,1698730,865380,833350,1291939,3416,76.05322799974098,962.987358154799
349,Orissa,Rayagada,19.292840020060204,83.45860120361095,Rayagada,967911,471960,495951,407735,1553,42.125257384201646,1050.8326976862445
350,Orissa,Sambalpur,21.515752380952385,84.34958483245157,Sambalpur,1041099,526877,514222,703691,5231,67.59117048426711,975.9811113409771
351,Orissa,Sundargarh,22.06354819277107,84.50524819277099,Sundargarh,2093437,1061147,1032290,1342322,12787,64.12048702683673,972.8058412265219
352,Puducherry,Karaikal,10.876161726078813,79.82369793621002,Karaikal,200222,97809,102413,154916,1868,77.3721169501853,1047.071332903925
353,Puducherry,Mahe,12.006420793787758,75.28275021570326,Mahe,41816,19143,22673,36470,574,87.21541993495313,1184.4016089432168
354,Puducherry,Yanam,16.707695652173904,82.26187304347832,Yanam,55626,27301,28325,39274,207,70.60367454068242,1037.5077835976704
355,Punjab,Amritsar,31.548679820627772,74.79883856502238,Amritsar,2490656,1318408,1172248,1684770,29961,67.6436248120977,889.1390222146711
356,Punjab,Bathinda,30.190524611973352,75.05685898004438,Bathinda,1388525,743197,645328,844868,11284,60.84643776669487,868.313515797292
357,Punjab,Faridkot,30.591187250996025,74.79751553784862,Faridkot,617508,326671,290837,381285,4348,61.745758759400694,890.3055367632878
358,Punjab,Fatehgarh Sahib,30.64290947368421,76.36208394736842,Fatehgarh Sahib,600163,320795,279368,426033,5138,70.98621541147988,870.8614535762714
359,Punjab,Firozpur,30.63407535211269,74.40245732394365,Firozpur,2029074,1071637,957437,1227511,10042,60.49611793359927,893.434063960091
360,Punjab,Gurdaspur,32.04283371212125,75.3204064393939,Gurdaspur,2298323,1212617,1085706,1634719,14428,71.12659969899792,895.3412330521509
361,Punjab,Hoshiarpur,31.55157169811319,75.8469857442349,Hoshiarpur,1586625,809057,777568,1199699,13747,75.61326715512487,961.0793800684006
362,Punjab,Jalandhar,31.250336907216507,75.54400350515463,Jalandhar,2193590,1145211,1048379,1622537,39082,73.96719532820627,915.4461492249027
363,Punjab,Kapurthala,31.336592638036837,75.47641165644177,Kapurthala,815168,426311,388857,576567,9732,70.72983728507498,912.1439512468597
364,Punjab,Ludhiana,30.76596397379912,75.83110851528383,Ludhiana,3498739,1867816,1630923,2560225,58589,73.17564985556224,873.1711260638093
365,Punjab,Mansa,29.919547714285724,75.4304922857143,Mansa,769751,408732,361019,423560,2673,55.025586196055606,883.2658074239355
366,Punjab,Moga,30.756540067340065,75.1600845117845,Moga,995746,525920,469826,627889,7897,63.057145095235136,893.3411925768178
367,Punjab,Muktsar,30.31243303303303,74.5518747747748,Muktsar,901896,475622,426274,524848,4571,58.19384940170485,896.2453376841273
368,Punjab,Patiala,30.214540380693364,76.27505893949697,Patiala,1895686,1002522,893164,1266791,24274,66.82493830729351,890.9171070560047
369,Punjab,Rupnagar,30.910937330754347,76.53743500967126,Rupnagar,684627,357485,327142,502731,6600,73.43137211941685,915.1209141642306
370,Punjab,Sangrur,30.185045204336895,75.89437014178496,Sangrur,1655169,878029,777140,1002077,10736,60.54227695177955,885.0960503582455
371,Rajasthan,Ajmer,26.199300378787903,74.6990419191919,Ajmer,2583052,1324085,1258967,1526673,13499,59.10345591184382,950.8203778458331
372,Rajasthan,Alwar,27.55271738035265,76.65359630562563,Alwar,3674179,1939026,1735153,2182476,9750,59.40037216477477,894.858036973202
373,Rajasthan,Banswara,23.453642032967014,74.44246868131869,Banswara,1797485,907754,889731,829343,2324,46.13907765572453,980.1455019752048
374,Rajasthan,Baran,24.98023243243244,76.86210651828291,Baran,1222755,633945,588810,693307,1363,56.70040196114512,928.8029718666446
375,Rajasthan,Barmer,25.77070908045978,71.50297126436782,Barmer,2603751,1369022,1234729,1188322,2766,45.63884949060029,901.905886099712
376,Rajasthan,Bharatpur,27.32411858037578,77.21752077244258,Bharatpur,2548462,1355726,1192736,1480869,4179,58.108341423179944,879.7765920252323
377,Rajasthan,Bhilwara,25.45119767759564,74.63947595628417,Bhilwara,2408523,1220736,1187787,1256126,6207,52.15337366510513,973.0089061025479
378,Rajasthan,Bikaner,28.12489068322981,73.26943322981371,Bikaner,2363937,1240801,1123136,1278801,7607,54.09623860534354,905.170128006022
379,Rajasthan,Bundi,25.48580716049379,75.79984074074079,Bundi,1110906,577160,533746,585044,1392,52.66368171564471,924.7799570309793
380,Rajasthan,Chittaurgarh,24.631623761665463,74.80010997846382,Chittaurgarh,1544338,783171,761167,821825,4941,53.215358295917085,971.903964779084
381,Rajasthan,Churu,28.29330375536484,74.65846427038629,Churu,2039547,1051446,988101,1149269,2577,56.34922852966859,939.7543953755114
382,Rajasthan,Dausa,26.91234817629181,76.57342097264443,Dausa,1634409,857787,776622,938051,1719,57.39389589753849,905.378607976106
383,Rajasthan,Dhaulpur,26.72397054945053,77.74476219780222,Dhaulpur,1206516,653647,552869,683098,1330,56.617400846735556,845.8219803655489
384,Rajasthan,Dungarpur,23.75104807692308,73.84765641025645,Dungarpur,1388552,696532,692020,681591,1477,49.086458411352254,993.5221928066478
385,Rajasthan,Ganganagar,29.256785412667963,73.56192303262948,Ganganagar,1969168,1043340,925828,1193343,6295,60.6013808877658,887.3694097801292
386,Rajasthan,Hanumangarh,29.1813351791531,74.74632573289902,Hanumangarh,1774692,931184,843508,1034136,3360,58.271294399253506,905.8446021409303
387,Rajasthan,Jaipur,27.033459290187885,75.77117286012533,Jaipur,6626178,3468507,3157671,4300965,76565,64.90868491610095,910.3833436115308
388,Rajasthan,Jaisalmer,26.86900838548185,71.18371877346682,Jaisalmer,669919,361708,308211,308653,754,46.07318198170226,852.0989306291262
389,Rajasthan,Jalor,25.07578093797277,72.18647261724662,Jalor,1828730,936634,892096,829582,1585,45.36383173021715,952.4488754412075
390,Rajasthan,Jhalawar,24.24725541474657,76.11242891705065,Jhalawar,1411129,725143,685986,739792,1750,52.42554011716859,946.0009956656825
391,Rajasthan,Jhunjhunun,28.13517401247401,75.52840893970894,Jhunjhunun,2137045,1095896,1041149,1370360,4828,64.12405915645202,950.0436172775519
392,Rajasthan,Jodhpur,26.678460838536967,73.00450847457628,Jodhpur,3687165,1923928,1763237,2031532,19335,55.09739867893083,916.4776436540245
393,Rajasthan,Karauli,26.51901555555556,76.96081818181815,Karauli,1458248,783639,674609,805849,1059,55.26145072717398,860.8670574078116
394,Rajasthan,Kota,25.175718080000014,76.18618928000001,Kota,1951014,1021161,929853,1298345,12843,66.5471903328218,910.5841292411285
395,Rajasthan,Nagaur,27.07862016048146,74.14215667001012,Nagaur,3307743,1696325,1611418,1758624,4449,53.16688751211929,949.946501996964
396,Rajasthan,Pali,25.80490393541874,73.55285640766907,Pali,2037573,1025422,1012151,1085693,4043,53.28363695435697,987.0580112383
397,Rajasthan,Rajsamand,25.24894767441859,73.96570215946844,Rajsamand,1156597,581339,575258,619139,1989,53.53109164211908,989.5396661844466
398,Rajasthan,Sawai Madhopur,26.251081180223288,76.4219283891548,Sawai Madhopur,1335551,704031,631520,741748,1887,55.53872521528568,897.0059557036551
399,Rajasthan,Sikar,27.64644058641976,75.29317422839503,Sikar,2677333,1374990,1302343,1652117,5647,61.7075649536311,947.1654339304285
400,Rajasthan,Sirohi,24.7976905263158,72.75309131578943,Sirohi,1036346,534231,502115,476806,2146,46.008379440843115,939.8836832755868
401,Rajasthan,Tonk,26.153935071707927,75.79192216427637,Tonk,1421326,728136,693190,749659,1908,52.743635168849366,952.0062186184998
402,Rajasthan,Udaipur,24.44076752136749,73.84029839743584,Udaipur,3068420,1566801,1501619,1582629,14211,51.57797824287418,958.3980352322982
403,Sikkim,East,27.29600352941175,88.74908392156858,East,1709346,907500,801846,1352998,80037,79.15296259505097,883.5768595041322
404,Tamil Nadu,Ariyalur,11.190514836795256,79.22249643916912,Ariyalur,754894,374703,380191,480604,1749,63.66509735141622,1014.6462665097424
405,Tamil Nadu,Chennai,13.058098905608748,80.28139151846806,Chennai,4646732,2335844,2310888,3776276,217368,81.267350903818,989.3160673401135
406,Tamil Nadu,Coimbatore,10.871376995940452,77.07619012178621,Coimbatore,3458045,1729297,1728748,2635907,63273,76.22535276435094,999.6825299529231
407,Tamil Nadu,Cuddalore,11.57587300613498,79.63002365371497,Cuddalore,2605914,1311697,1294217,1815281,15396,69.66005017817164,986.6737516362392
408,Tamil Nadu,Dharmapuri,12.300141200000006,78.11509813333339,Dharmapuri,1506843,774303,732540,917709,3651,60.902761601573616,946.0637502373102
409,Tamil Nadu,Dindigul,10.377801390820574,77.78011279554937,Dindigul,2159775,1080938,1078837,1481834,9155,68.61057286059891,998.0563177536548
410,Tamil Nadu,Erode,11.267012155963302,77.42034334862392,Erode,2251744,1129868,1121876,1492662,18604,66.28915187516876,992.9266073559036
411,Tamil Nadu,Kancheepuram,12.496424756511884,80.08820360135913,Kancheepuram,3998252,2012958,1985294,3013382,100322,75.36748559120335,986.257040633734
412,Tamil Nadu,Kanniyakumari,8.183466300191206,77.32053064053538,Kanniyakumari,1870374,926345,944029,1548738,15673,82.8036531731087,1019.090079829869
413,Tamil Nadu,Karur,10.79532776617955,78.08749686847604,Karur,1064493,528184,536309,727044,4915,68.29955669036809,1015.3828968692728
414,Tamil Nadu,Madurai,9.904313833333331,78.01366033333332,Madurai,3038252,1526475,1511777,2273430,34097,74.82690705050142,990.3712802371476
415,Tamil Nadu,Nagapattinam,10.789468161718286,79.79437299431483,Nagapattinam,1616450,798127,818323,1213008,5585,75.0414797859507,1025.3042435602354
416,Tamil Nadu,Namakkal,11.33766638477801,78.14624841437633,Namakkal,1726601,869280,857321,1176131,8960,68.11828557958671,986.2426375851279
417,Tamil Nadu,Perambalur,11.260137758112096,78.86034011799416,Perambalur,565223,282157,283066,375823,1507,66.49110174214425,1003.2216106635667
418,Tamil Nadu,Pudukkottai,10.130514816433578,79.05444484265728,Pudukkottai,1618345,803188,815157,1110545,4494,68.62226533897284,1014.9018660637361
419,Tamil Nadu,Ramanathapuram,9.31286995153476,78.99185362412462,Ramanathapuram,1353445,682658,670787,978946,5172,72.32994321897085,982.610619080125
420,Tamil Nadu,Salem,11.629324202127655,78.2478257978723,Salem,3482056,1781571,1700485,2285562,20660,65.63828956225862,954.4862371468777
421,Tamil Nadu,Sivaganga,9.960306580645158,78.56535729032255,Sivaganga,1339101,668672,670429,959744,5773,71.67077016595462,1002.6275961906586
422,Tamil Nadu,Thanjavur,10.387692255892237,79.3194869107745,Thanjavur,2405890,1182416,1223474,1790998,13495,74.44222304427883,1034.7238197047402
423,Tamil Nadu,Theni,9.924066666666668,77.43458833333332,Theni,1245899,625683,620216,870080,4667,69.83551636208072,991.2623485055532
424,Tamil Nadu,Thiruvallur,13.275858101752885,80.19724702864492,Thiruvallur,3728104,1876062,1852042,2791721,75634,74.88313094269903,987.1965851874832
425,Tamil Nadu,Thiruvarur,10.368927409395978,79.60322893959727,Thiruvarur,1264277,626693,637584,946471,4416,74.86262899665184,1017.378525051341
426,Tamil Nadu,Tiruvannamalai,12.419318947368414,79.23265631578953,Tiruvannamalai,2464875,1235889,1228986,1626813,6445,65.9998174349612,994.4145469374677
427,Tamil Nadu,Vellore,12.784882632293078,79.02643283582084,Vellore,3936331,1961688,1974643,2773928,20623,70.46988680575896,1006.6040063455555
428,Tamil Nadu,Virudhunagar,9.468872195892564,77.87641469194315,Virudhunagar,1942288,967709,974579,1398788,10219,72.01753807880192,1007.0992416108562
429,Tripura,Dhalai,23.781360477941163,91.94654283088232,Dhalai,378230,194544,183686,276217,273,73.0288448827433,944.1874331770705
430,Tripura,North Tripura,24.121739755351683,92.17842538226292,North Tripura,693947,352860,341087,520402,997,74.99160598720074,966.6354928300176
431,Tripura,South Tripura,23.211874098057383,91.6065807585568,South Tripura,876001,447544,428457,646810,948,73.83667370242728,957.3516793879485
432,Tripura,West Tripura,23.780166241299337,91.41310788863107,West Tripura,1725739,879428,846311,1361354,6394,78.88527755355823,962.3425681238259
433,Uttar Pradesh,Agra,26.99512974910393,78.05278291517321,Agra,4418797,2364953,2053844,2680510,27183,60.66153299189803,868.450239814491
434,Uttar Pradesh,Aligarh,27.93748576850093,78.00146831119557,Aligarh,3673889,1951996,1721893,2092567,13634,56.957817723943215,882.1191231949246
435,Uttar Pradesh,Allahabad,25.392038662316445,82.05172446982063,Allahabad,5954391,3131807,2822584,3665727,24122,61.56342437035123,901.2637113334251
436,Uttar Pradesh,Ambedkar Nagar,26.39119025974028,82.68282142857147,Ambedkar Nagar,2397888,1212410,1185478,1486939,2509,62.010360784156724,977.7863923920127
437,Uttar Pradesh,Auraiya,26.66892394014961,79.42637057356607,Auraiya,1379545,740040,639505,930836,2404,67.47413096346983,864.149235176477
438,Uttar Pradesh,Azamgarh,26.008290954773837,83.01220251256285,Azamgarh,4613913,2285004,2328909,2771917,6652,60.077357332051996,1019.2144083774033
439,Uttar Pradesh,Baghpat,29.045793499999988,77.30266300000001,Baghpat,1303048,700070,602978,797970,2989,61.23872643218055,861.3110117559672
440,Uttar Pradesh,Bahraich,27.691776300578027,81.46779783237004,Bahraich,3487731,1843884,1643847,1398368,2681,40.09391779354543,891.5132405292306
441,Uttar Pradesh,Ballia,25.86075638297873,84.03651978723408,Ballia,3239774,1672902,1566872,1963590,4672,60.608857284489595,936.6191205462125
442,Uttar Pradesh,Balrampur,27.449076537911324,82.47158326180256,Balrampur,2148665,1114721,1033944,868357,1551,40.413791819571685,927.5361278741497
443,Uttar Pradesh,Banda,25.351885902503284,80.52487391304344,Banda,1799410,965876,833534,1002937,1655,55.73699156945888,862.9824118209791
444,Uttar Pradesh,Bara Banki,26.922777025232424,81.35762350597606,Bara Banki,3260699,1707073,1553626,1692458,3159,51.90476029832867,910.1110497324953
445,Uttar Pradesh,Bareilly,28.51101940789474,79.43187072368416,Bareilly,4448359,2357665,2090694,2191759,15164,49.271180675840235,886.7646591012718
446,Uttar Pradesh,Basti,26.833880454545447,82.69790590909092,Basti,2464464,1255272,1209192,1393783,3423,56.55521849781535,963.2908246180907
447,Uttar Pradesh,Bijnor,29.313974259681096,78.45098815489754,Bijnor,3682713,1921215,1761498,2135393,7303,57.984236078130444,916.8666703101943
448,Uttar Pradesh,Bulandshahr,28.34875862068968,78.01082758620684,Bulandshahr,3499171,1845260,1653911,2031656,7865,58.0610664640282,896.302418087424
449,Uttar Pradesh,Chandauli,25.1180859611231,83.25307062634984,Chandauli,1952756,1017905,934851,1174606,3492,60.15119144429719,918.4069240253265
450,Uttar Pradesh,Chitrakoot,25.159924623803,81.07666087551297,Chitrakoot,991730,527721,464009,531072,827,53.55005898782935,879.2695382598001
451,Uttar Pradesh,Deoria,26.42218856548857,83.8244070686071,Deoria,3100946,1537436,1563510,1875239,4469,60.47312658782191,1016.959405139466
452,Uttar Pradesh,Etah,27.591155309734443,78.70021858407083,Etah,1774480,947339,827141,1055202,2635,59.4654208556873,873.1203930166498
453,Uttar Pradesh,Etawah,26.78817670157068,79.07621806282728,Etawah,1581810,845856,735954,1062003,2964,67.13846795759288,870.0700828509817
454,Uttar Pradesh,Faizabad,26.60589185185181,82.00783530864202,Faizabad,2470996,1259628,1211368,1450901,4746,58.71725409510983,961.6871012711689
455,Uttar Pradesh,Farrukhabad,27.45063297872342,79.4406284574468,Farrukhabad,1885204,1006240,878964,1092677,2624,57.96067693469779,873.5132771505804
456,Uttar Pradesh,Fatehpur,25.8374362030905,80.85416203090509,Fatehpur,2632733,1384722,1248011,1512166,3385,57.437119525603244,901.2718798430299
457,Uttar Pradesh,Firozabad,27.20963993055552,78.42660624999998,Firozabad,2498156,1332046,1166110,1521806,5834,60.91717250644075,875.4277254689403
458,Uttar Pradesh,Gautam Buddha Nagar,28.393311038961038,77.52462467532465,Gautam Buddha Nagar,1648115,890214,757901,1122947,53181,68.13523328165813,851.369445998378
459,Uttar Pradesh,Ghaziabad,28.74997308584685,77.67441879350343,Ghaziabad,4681645,2488834,2192811,3123264,78116,66.71296093573946,881.0595644386086
460,Uttar Pradesh,Ghazipur,25.624724775583484,83.5360854578097,Ghazipur,3620268,1855075,1765193,2197549,5309,60.70127957377741,951.5480506178995
461,Uttar Pradesh,Gonda,27.157215552099505,82.0226888024882,Gonda,3433919,1787146,1646773,1679994,4313,48.92351858037421,921.454094964821
462,Uttar Pradesh,Gorakhpur,26.63315886792452,83.3549560377358,Gorakhpur,4440895,2277777,2163118,2700328,14597,60.805941144746726,949.6618852503998
463,Uttar Pradesh,Hardoi,27.337409090909137,80.26411767676768,Hardoi,4092845,2191442,1901403,2221601,3845,54.28011566526463,867.6492464778898
464,Uttar Pradesh,Jalaun,26.067954587155988,79.36686911314993,Jalaun,1689974,906092,783882,1075196,2217,63.622043889432625,865.1240712863595
465,Uttar Pradesh,Jaunpur,25.70141280913127,82.54315351934063,Jaunpur,4494204,2220465,2273739,2731677,8002,60.782220833767234,1023.9922718889962
466,Uttar Pradesh,Jhansi,25.45581535234902,78.89954580536917,Jhansi,1998603,1057436,941167,1304513,8517,65.27124196251081,890.0463006744616
467,Uttar Pradesh,Jyotiba Phule Nagar,28.870498984771597,78.39009365482241,Jyotiba Phule Nagar,1840221,963449,876772,983110,2825,53.42347468048675,910.0346774972002
468,Uttar Pradesh,Kannauj,26.993988617886185,79.64437940379408,Kannauj,1656616,881776,774840,1017087,2488,61.3954591770211,878.726570013246
469,Uttar Pradesh,Kanpur Dehat,26.43047641196011,79.98710083056478,Kanpur Dehat,1796184,963255,832929,1170243,2682,65.15162143744739,864.7024931093013
470,Uttar Pradesh,Kaushambi,25.53587532051282,81.41811282051287,Kaushambi,1599596,838485,761111,813424,1503,50.851840089622634,907.7216646690161
471,Uttar Pradesh,Kushinagar,26.892530675909864,83.92261542461007,Kushinagar,3564544,1818055,1746489,1954820,3486,54.84067527291009,960.6359543578164
472,Uttar Pradesh,Lalitpur,24.58877161016945,78.60082330508473,Lalitpur,1221592,641011,580581,641191,1079,52.48814661523651,905.7270468057491
473,Uttar Pradesh,Lucknow,26.838233589251463,80.89706026871404,Lucknow,4589838,2394476,2195362,3127260,68506,68.13443088841044,916.8444369457034
474,Uttar Pradesh,Mahoba,25.34529670138888,79.67863003472216,Mahoba,875958,466358,409600,488106,1316,55.72253464207188,878.2952152638102
475,Uttar Pradesh,Mainpuri,27.17386862302482,79.03501851015807,Mainpuri,1868529,993377,875152,1203885,2642,64.42955929503904,880.986775413564
476,Uttar Pradesh,Mathura,27.59390432801821,77.62153416856502,Mathura,2547184,1367125,1180059,1507746,8726,59.19266138606398,863.1683276949803
477,Uttar Pradesh,Mau,26.01082203791469,83.50582654028433,Mau,2205968,1114709,1091259,1363044,2656,61.788928941852284,978.9631195226737
478,Uttar Pradesh,Meerut,29.02957625698323,77.80611005586593,Meerut,3443689,1825743,1617946,2141488,23717,62.18587102377712,886.1849668874535
479,Uttar Pradesh,Mirzapur,25.10207959183675,82.60126628571429,Mirzapur,2496970,1312302,1184668,1428683,4447,57.216666599919094,902.7403753099516
480,Uttar Pradesh,Moradabad,28.851770406189537,78.73580193423597,Moradabad,4772006,2503186,2268820,2263848,11690,47.44017505426439,906.3729183528511
481,Uttar Pradesh,Muzaffarnagar,29.470507977736563,77.64017847866423,Muzaffarnagar,4143512,2193434,1950078,2417339,10077,58.34034027173084,889.0525085322831
482,Uttar Pradesh,Pilibhit,28.52024175035868,79.90103974175037,Pilibhit,2031007,1072002,959005,1061095,2870,52.24477315932441,894.5925474019638
483,Uttar Pradesh,Pratapgarh,25.864842731707316,81.93530048780492,Pratapgarh,867848,437744,430104,401515,716,46.26559028770015,982.5468767133302
484,Uttar Pradesh,Pratapgarh,25.864842731707316,81.93530048780492,Pratapgarh,3209141,1606085,1603056,1931559,5149,60.18928429757371,998.1140475130519
485,Uttar Pradesh,Rae Bareli,26.253902840059787,81.22260463378181,Rae Bareli,3405559,1752542,1653017,1965843,5184,57.72453215463306,943.2110614182142
486,Uttar Pradesh,Rampur,28.83244727272725,79.10977333333337,Rampur,2335819,1223889,1111930,1043666,3847,44.68094488485623,908.5219329530701
487,Uttar Pradesh,Saharanpur,30.03381165217392,77.59905147826095,Saharanpur,3466382,1834106,1632276,2077108,9699,59.92149739988264,889.9572870924582
488,Uttar Pradesh,Sant Kabir Nagar,26.791596516393444,83.0387764344262,Sant Kabir Nagar,1715183,869656,845527,954949,2031,55.67621647369406,972.2545466253323
489,Uttar Pradesh,Shahjahanpur,27.991389350649328,79.8302275324675,Shahjahanpur,3006538,1606403,1400135,1490930,3889,49.589594410581206,871.5963553354918
490,Uttar Pradesh,Sitapur,27.501995963091108,80.85288881199547,Sitapur,4483992,2375264,2108728,2283733,3874,50.93080005495103,887.7867891737508
491,Uttar Pradesh,Sonbhadra,24.46693268858798,83.06816324951639,Sonbhadra,1862559,971344,891215,985708,5149,52.92224300008751,917.5070829695762
492,Uttar Pradesh,Sultanpur,26.2846386419753,82.05710456790123,Sultanpur,3797117,1914586,1882531,2239902,5956,58.9895439092343,983.2574770733726
493,Uttar Pradesh,Unnao,26.63163990895297,80.636773292868,Unnao,3108367,1630087,1478280,1773584,3476,57.05838467594078,906.8718418096703
494,Uttar Pradesh,Varanasi,25.36057088888889,82.82529666666672,Varanasi,3676841,1921857,1754984,2403903,19214,65.37957447711229,913.1709591296335
495,Uttaranchal,Almora,29.683532133676103,79.50165064267351,Almora,622506,291081,331425,436497,1830,70.11932415109253,1138.6005957104724
496,Uttaranchal,Bageshwar,29.98703393393397,79.83954354354357,Bageshwar,259898,124326,135572,179483,435,69.0590154599112,1090.4557373357143
497,Uttaranchal,Chamoli,30.58338611464965,79.56281095541402,Chamoli,391605,193991,197614,280556,899,71.6425990475096,1018.6761241500894
498,Uttaranchal,Champawat,29.29142393939393,80.07720212121217,Champawat,259648,131125,128523,177726,548,68.44882302193739,980.1563393708294
499,Uttaranchal,Pithoragarh,30.14720631868129,80.34229230769236,Pithoragarh,483439,239306,244133,345550,1344,71.47747699296086,1020.1708273089685
500,Uttaranchal,Tehri Garhwal,30.463700918635173,78.48783792650917,Tehri Garhwal,618931,297986,320945,407994,1366,65.91914122898999,1077.047243830247
501,Uttaranchal,Udham Singh Nagar,29.02779577677222,79.45629004524895,Udham Singh Nagar,1648902,858783,790119,1037839,7883,62.94121785284996,920.0449939041644
502,Uttaranchal,Uttarkashi,30.968958552036234,78.56880615384617,Uttarkashi,330086,168597,161489,215126,602,65.17271256581618,957.8402937181563
503,West Bengal,Bankura,23.081280892857155,87.12640053571437,Bankura,3596674,1838095,1758579,2232992,4273,62.08491511880143,956.7399943963724
504,West Bengal,Barddhaman,23.444453888888884,87.8150581111111,Barddhaman,7717563,3966889,3750674,5247208,32323,67.99047834141425,945.4950718308478
505,West Bengal,Birbhum,24.06389342723,87.65153089201888,Birbhum,3502404,1790920,1711484,2158447,5210,61.62758493880204,955.645143278315
506,West Bengal,Dakshin Dinajpur,25.342094363021435,88.69821679819614,Dakshin Dinajpur,1676276,857199,819077,1083685,2518,64.64836339600399,955.5272462987008
507,West Bengal,Darjiling,26.839619571045585,88.33145067024122,Darjiling,1846823,937259,909564,1315585,10943,71.23503443481049,970.4510706218879
508,West Bengal,Haora,22.401674174428507,87.99421176968654,Haora,4850029,2500819,2349210,3605206,30751,74.33369986035136,939.3762603371135
509,West Bengal,Hugli,22.87929264705881,88.00010264705891,Hugli,5519145,2814653,2704492,4078388,31725,73.89528631699294,960.8616053204427
510,West Bengal,Jalpaiguri,26.62642031250004,89.04154375000003,Jalpaiguri,3872846,1983064,1889782,2498780,9322,64.5205102397565,952.9606709617037
511,West Bengal,Kolkata,22.550581481481483,88.3527648148148,Kolkata,4496694,2356766,2139928,3588137,136618,79.79500050481532,907.9934113102446
512,West Bengal,Maldah,25.08026802575105,88.17191684549356,Maldah,3988845,2051541,1937304,2086432,5357,52.30667022659442,944.3164918468605
513,West Bengal,Murshidabad,24.25950655391121,88.16816860465121,Murshidabad,7103807,3627564,3476243,4055834,7951,57.09380899565543,958.2857807608632
514,West Bengal,Nadia,23.56410971055088,88.58293034547152,Nadia,5167600,2653768,2513832,3480555,12787,67.35341357690223,947.268939862113
515,West Bengal,Puruliya,23.254192328767108,86.3968532876713,Puruliya,2930115,1496996,1433119,1624905,3551,55.455331957960695,957.3298793049547
516,West Bengal,Uttar Dinajpur,26.044619165196977,88.23595232216337,Uttar Dinajpur,3007134,1551066,1456068,1489667,2883,49.53776585945289,938.7530898104916
